[
  {
    "id": 1,
    "Name": "Harper Carpet Care",
    "Description": "Here at Harper Carpet Care, we take our customers health and safety to heart. All of our equipment is sanitized before arriving to your home or place of business. That means all hoses, tools and even the inside of our tanks are sanitized with microban for your peace of mind!",
    "Address": "Austin, TX 78745",
    "Hours": "8:30 AM - 6:30 PM"
  },
  {
    "id": 2,
    "Name": "Pokeworks",
    "Description": "We are committed to bringing you delicious, Hawaiian poke using the highest quality sourced ingredients. We are the only poke restaurant specialized in poke burrito.",
    "Address": "1920 E Riverside Dr., Austin, TX 78741",
    "Hours": "11:00 AM - 9:00 PM"
  },
  {
    "id": 3,
    "Name": "Bella Salon",
    "Description": "Bella Salon is a happy and welcoming place! Our talented team delivers on-trend hair cuts, hair color and styling; including updos and makeup! And we have an amazing spa and nail salon to satisfy all your skin care and beauty needs!",
    "Address": "1221 W 6th St., Austin, TX 78703",
    "Hours": "8:00 AM - 8:00 PM"
  },
  {
    "id": 4,
    "Name": "Hatchet Alley",
    "Description": "Austin's own Axe throwing football bowling and bocce ball facility. 12,000 sqft of fun. Great for a company outing. Batchelor or Bachelorette party, or just a date night.",
    "Address": "443 Bastrop Hwy., Austin, TX 78741",
    "Hours": "11:00 AM - 11:00 PM"
  },
  {
    "id": 5,
    "Name": "Women and Their Work",
    "Description": "Women & Their Work is a nonprofit arts organization located in Austin that serves as a catalyst for contemporary art created by women living and working in Texas and beyond. For 41 years, Women & Their Work has brought groundbreaking art to Austin, with exhibitions, performances, and educational programs.",
    "Address": "1710 Lavaca St., Austin, TX 78701",
    "Hours": "12:00 PM - 4:00 PM"
  }
]
